City_ID,City,Lat,Lng,Max Temp,Humidity,Cloudiness,Wind Speed,Country,Date
0,santa maria del oro,25.9333,-105.3667,51.28,39,35,9.57,MX,1674009019
1,ushuaia,-54.8,-68.3,56.86,62,20,6.91,AR,1674008879
2,hermanus,-34.4187,19.2345,72.81,89,98,8.72,ZA,1674009020
3,lebu,-37.6167,-73.65,54.99,92,10,9.89,CL,1674009020
4,cherskiy,68.75,161.3,-48.68,99,68,4.18,RU,1674009021
5,portland,45.5234,-122.6762,48.29,83,100,8.99,US,1674008828
6,kensington,-33.9167,151.2167,95.7,59,0,14.97,AU,1674009022
7,rikitea,-23.1203,-134.9692,79.05,69,98,5.79,PF,1674008766
8,piacabucu,-10.4056,-36.4344,78.26,80,100,9.75,BR,1674008934
9,puerto ayora,-0.7393,-90.3518,74.55,96,82,6.06,EC,1674008814
10,albany,42.6001,-73.9662,33.53,88,100,2.24,US,1674009024
11,cape town,-33.9258,18.4232,74.37,71,0,12.66,ZA,1674008936
12,hami,42.8,93.45,15.44,45,1,0.72,CN,1674009025
13,waddan,29.1614,16.139,51.49,34,0,6.55,LY,1674009025
14,punta arenas,-53.15,-70.9167,59.11,58,75,21.85,CL,1674009026
15,khatanga,71.9667,102.5,-37.17,100,43,5.37,RU,1674008788
16,avarua,-21.2078,-159.775,82.45,65,75,3.44,CK,1674008793
17,casa grande,32.8795,-111.7573,51.51,60,0,9.22,US,1674009027
18,villarrica,-25.75,-56.4333,76.71,72,16,3.71,PY,1674009028
19,kruisfontein,-34.0033,24.7314,71.89,77,100,4.59,ZA,1674009028
20,ribeira grande,38.5167,-28.7,56.77,84,36,11.01,PT,1674009029
21,nikolskoye,59.7035,30.7861,33.8,97,100,10.38,RU,1674008792
22,rawson,-43.3002,-65.1023,71.89,60,0,3.44,AR,1674009029
23,bethel,41.3712,-73.414,42.89,60,100,0.0,US,1674008840
24,srednekolymsk,67.45,153.6833,-37.21,97,100,5.46,RU,1674009030
25,bathsheba,13.2167,-59.5167,77.61,73,20,13.8,BB,1674009031
26,jamestown,42.097,-79.2353,40.01,72,100,17.27,US,1674008798
27,roswell,34.0232,-84.3616,56.55,93,75,3.44,US,1674009031
28,pietarsaari,63.65,22.6833,32.13,87,100,14.47,FI,1674009032
29,hithadhoo,-0.6,73.0833,80.67,66,2,3.96,MV,1674009032
30,east london,-33.0153,27.9116,75.43,92,92,7.23,ZA,1674009033
31,caravelas,-17.7125,-39.2481,74.14,90,9,3.44,BR,1674009034
32,busselton,-33.65,115.3333,73.4,36,59,8.14,AU,1674009034
33,auki,-8.7676,160.7034,82.98,78,96,11.41,SB,1674009034
34,kapaa,22.0752,-159.319,82.72,69,0,10.36,US,1674009035
35,yellowknife,62.456,-114.3525,10.92,92,100,6.91,CA,1674008911
36,thompson,55.7435,-97.8558,12.36,92,100,2.3,CA,1674008827
37,arraial do cabo,-22.9661,-42.0278,74.05,92,0,17.96,BR,1674008790
38,katsuura,35.1333,140.3,50.95,63,92,8.43,JP,1674009036
39,svetlogorsk,52.6333,29.7333,37.69,96,100,9.82,BY,1674009037
40,grand-lahou,5.1367,-5.0242,77.94,89,77,3.83,CI,1674009037
41,hobart,-42.8794,147.3294,73.06,55,75,13.8,AU,1674009038
42,bluff,-46.6,168.3333,60.39,72,0,13.02,NZ,1674009038
43,komsomolskiy,40.4272,71.7189,12.92,79,5,4.61,UZ,1674008787
44,dibulla,11.2725,-73.3091,75.45,80,14,5.21,CO,1674009039
45,bonthe,7.5264,-12.505,74.39,85,8,3.15,SL,1674009039
46,safford,32.834,-109.7076,43.72,65,0,8.05,US,1674009040
47,vaini,-21.2,-175.2,86.16,74,20,6.91,TO,1674009040
48,camana,-16.6228,-72.7111,72.01,80,70,6.67,PE,1674009041
49,gimli,50.6336,-96.9907,8.62,78,100,6.91,CA,1674008995
50,marzuq,14.4,46.4667,59.23,56,8,2.62,YE,1674009041
51,murdochville,48.9583,-65.5006,25.68,99,100,2.82,CA,1674009042
52,wittingen,52.7269,10.7361,31.15,99,100,4.09,DE,1674009042
53,port lincoln,-34.7333,135.8667,63.55,61,100,20.27,AU,1674009010
54,esperance,-33.8667,121.9,64.94,50,92,15.23,AU,1674009043
55,axim,4.8699,-2.2405,78.73,85,59,5.57,GH,1674008954
56,mataura,-46.1927,168.8643,78.31,38,3,1.72,NZ,1674008773
57,marawi,7.9986,124.2928,78.75,74,100,3.89,PH,1674009044
58,haines junction,60.7522,-137.5108,15.17,97,100,0.89,CA,1674009044
59,arvika,59.6553,12.5852,34.41,98,100,4.88,SE,1674009045
60,aktau,43.65,51.2,19.98,45,5,12.57,KZ,1674009045
61,mutoko,-17.397,32.2268,63.07,94,100,2.13,ZW,1674009045
62,fortuna,40.5982,-124.1573,48.65,82,20,0.0,US,1674008886
63,hilo,19.7297,-155.09,80.33,82,20,10.36,US,1674009046
64,chimbote,-9.0853,-78.5783,68.74,78,100,4.59,PE,1674009046
65,salym,60.0625,71.4789,6.48,94,71,5.64,RU,1674009047
66,riyadh,24.6877,46.7219,48.34,77,92,13.51,SA,1674008971
67,saint-denis,48.9167,2.3333,34.14,86,0,6.91,FR,1674009048
68,kodiak,57.79,-152.4072,35.11,69,75,12.66,US,1674009048
69,new norfolk,-42.7826,147.0587,72.72,44,45,8.99,AU,1674009049
70,boyolangu,-8.1181,111.8935,81.81,78,99,8.68,ID,1674009049
71,kaitangata,-46.2817,169.8464,63.99,64,3,8.19,NZ,1674009049
72,butaritari,3.0707,172.7902,81.37,79,50,17.98,KI,1674009050
73,saint anthony,45.0205,-93.218,35.2,88,100,10.36,US,1674009050
74,qaanaaq,77.484,-69.3632,-19.17,87,90,5.99,GL,1674009051
75,mercedes,-34.6515,-59.4307,80.78,49,9,17.4,AR,1674009051
76,leningradskiy,69.3833,178.4167,-28.08,97,94,8.3,RU,1674008933
77,udachnyy,66.4167,112.4,-52.71,99,98,4.45,RU,1674009052
78,mumford,5.2618,-0.759,78.8,88,36,5.84,GH,1674008921
79,dikson,73.5069,80.5464,-12.71,76,100,11.34,RU,1674008784
80,yakeshi,49.2833,120.7333,-0.27,92,100,3.24,CN,1674009053
81,melilla,35.2937,-2.9383,59.38,72,100,13.8,ES,1674009053
82,palmer,42.1584,-72.3287,42.17,72,100,5.75,US,1674009054
83,pevek,69.7008,170.3133,-36.99,100,60,4.27,RU,1674009054
84,cidreira,-30.1811,-50.2056,73.78,85,98,12.5,BR,1674009055
85,kencong,-8.2833,113.3667,82.9,73,100,4.99,ID,1674009055
86,lokosovo,61.1333,74.8167,3.58,94,99,6.62,RU,1674009056
87,ambovombe,-25.1667,46.0833,72.59,86,4,6.29,MG,1674009056
88,lorengau,-2.0226,147.2712,83.62,69,83,2.08,PG,1674008793
89,empalme,27.9667,-110.8167,64.45,55,0,0.0,MX,1674008893
90,noshiro,40.2039,140.0242,34.63,71,100,15.7,JP,1674009057
91,upernavik,72.7868,-56.1549,-11.79,95,100,5.97,GL,1674009057
92,baft,29.234,56.6057,33.84,90,31,11.25,IR,1674009058
93,sungaipenuh,-2.0833,101.3833,73.76,72,96,1.01,ID,1674009058
94,umea,63.8284,20.2597,31.93,93,100,12.66,SE,1674009059
95,barrow,71.2906,-156.7887,-5.78,77,100,17.27,US,1674008823
96,deputatskiy,69.3,139.9,-34.55,100,95,1.66,RU,1674009059
97,atuona,-9.8,-139.0333,78.53,77,15,18.32,PF,1674008785
98,marienburg,54.0359,19.0266,37.04,89,100,5.19,PL,1674009060
99,isangel,-19.55,169.2667,80.71,83,100,3.44,VU,1674009061
100,shellbrook,53.2168,-106.4011,9.63,100,96,4.16,CA,1674009061
101,sarkand,45.41,79.9186,9.61,68,0,5.61,KZ,1674009062
102,san patricio,28.017,-97.5169,71.46,86,96,10.27,US,1674009063
103,port alfred,-33.5906,26.891,74.17,96,100,6.67,ZA,1674009064
104,broome,42.2506,-75.833,40.53,89,100,4.61,US,1674009065
105,mar del plata,-38.0023,-57.5575,74.08,96,20,10.0,AR,1674008908
106,puerto escondido,15.85,-97.0667,79.63,73,40,6.91,MX,1674009066
107,tire,38.0888,27.7351,54.34,88,98,7.63,TR,1674009066
108,bagua grande,-5.7561,-78.4411,77.22,74,85,3.71,PE,1674009067
109,kurumkan,54.3,110.3,-3.89,94,100,0.89,RU,1674009068
110,guerrero negro,27.9769,-114.0611,58.62,59,33,16.93,MX,1674009068
111,husavik,66.0449,-17.3389,24.4,81,100,14.63,IS,1674009069
112,torbay,47.6666,-52.7314,48.38,97,100,14.97,CA,1674009069
113,haimen,23.1935,116.6142,55.29,56,100,9.84,CN,1674009070
114,yanam,16.7333,82.2167,73.51,70,5,1.81,IN,1674009070
115,tuatapere,-46.1333,167.6833,71.98,50,0,5.99,NZ,1674009071
116,alice springs,-23.7,133.8833,92.75,36,40,10.36,AU,1674009071
117,sitka,57.0531,-135.33,42.69,70,75,14.97,US,1674008822
118,tuktoyaktuk,69.4541,-133.0374,3.2,85,100,12.66,CA,1674009072
119,saint george,37.1041,-113.5841,41.43,80,100,10.36,US,1674009068
120,pisco,-13.7,-76.2167,69.85,83,0,12.66,PE,1674008795
121,timizart,36.8,4.2667,51.46,80,89,13.6,DZ,1674009073
122,kahului,20.8947,-156.47,80.62,69,40,5.75,US,1674008837
123,sangar,63.9242,127.4739,-55.43,97,77,2.89,RU,1674009074
124,dunedin,-45.8742,170.5036,61.81,71,34,3.0,NZ,1674009043
125,maniitsoq,65.4167,-52.9,0.3,74,28,10.36,GL,1674009075
126,carnarvon,-24.8667,113.6333,87.21,50,25,10.58,AU,1674008864
127,paris,48.8534,2.3488,34.14,87,0,6.91,FR,1674008962
128,cap malheureux,-19.9842,57.6142,79.47,74,100,11.99,MU,1674009076
129,jackson,42.4165,-122.8345,43.39,78,93,2.84,US,1674009076
130,georgetown,5.4112,100.3354,82.33,74,20,6.91,MY,1674009012
131,coihaique,-45.5752,-72.0662,64.35,52,0,3.44,CL,1674009077
132,walvis bay,-22.9575,14.5053,69.1,88,100,2.3,NA,1674008915
133,provideniya,64.3833,-173.3,-5.69,65,0,11.18,RU,1674009078
134,port elizabeth,-33.918,25.5701,74.32,97,100,8.05,ZA,1674009079
135,sola,-13.8833,167.55,79.97,84,100,24.09,VU,1674009079
136,hamilton,39.1834,-84.5333,48.09,80,20,9.22,US,1674008781
137,bredasdorp,-34.5322,20.0403,70.81,90,100,2.3,ZA,1674009080
138,geraldton,-28.7667,114.6,93.61,27,0,20.71,AU,1674009078
139,astana,51.1801,71.446,-11.25,84,23,4.47,KZ,1674009081
140,sao joao da barra,-21.6403,-41.0511,74.86,91,1,11.41,BR,1674009082
141,inhambane,-23.865,35.3833,78.44,81,35,6.31,MZ,1674009083
142,la joya,18.6667,-99.4667,74.16,44,100,5.14,MX,1674009083
143,saint-augustin,51.226,-58.6502,35.87,100,100,13.47,CA,1674009084
144,qui nhon,13.7667,109.2333,72.81,84,100,19.48,VN,1674009084
145,cabo san lucas,22.8909,-109.9124,69.1,77,75,11.5,MX,1674009085
146,severo-kurilsk,50.6789,156.125,16.25,62,100,22.79,RU,1674009086
147,sosnovo-ozerskoye,52.5249,111.5418,-2.54,92,100,9.91,RU,1674009086
148,vila velha,-20.3297,-40.2925,75.15,96,40,3.44,BR,1674008820
149,san andres,12.5847,-81.7006,78.82,83,20,10.36,CO,1674009088
150,abu dhabi,24.4667,54.3667,69.91,78,20,12.66,AE,1674008810
151,mayumba,-3.432,10.6554,77.58,84,94,2.39,GA,1674009089
152,nusaybin,37.0778,41.2178,43.5,71,4,7.0,TR,1674009090
153,bella union,-30.2752,-57.6007,81.25,31,7,7.85,UY,1674009090
154,surgut,61.25,73.4167,3.38,84,0,7.0,RU,1674009091
155,mahebourg,-20.4081,57.7,79.25,88,40,14.97,MU,1674009091
156,asau,46.4333,26.4,40.28,79,93,6.38,RO,1674009091
157,milyutinskaya,48.6279,41.6679,31.3,93,100,16.08,RU,1674009092
158,namibe,-15.1961,12.1522,73.51,77,96,6.64,AO,1674008828
159,mendoza,-32.8908,-68.8272,72.93,64,75,2.3,AR,1674008891
160,twentynine palms,34.1356,-116.0542,49.96,51,1,8.99,US,1674009093
161,wagga wagga,-35.1167,147.3667,87.85,57,100,6.67,AU,1674009002
162,dharchula,29.85,80.5333,50.49,15,40,4.09,IN,1674009093
163,tuy hoa,13.0833,109.3,72.27,85,100,15.1,VN,1674009094
164,roxana,10.2753,-83.7513,78.03,97,66,2.39,CR,1674009094
165,margate,51.3813,1.3862,29.3,79,8,16.89,GB,1674009095
166,preobrazheniye,42.9019,133.9064,15.44,43,0,6.15,RU,1674008887
167,roald,62.5833,6.1333,37.76,93,100,4.61,NO,1674009095
168,kavieng,-2.5744,150.7967,80.42,75,100,4.85,PG,1674008803
169,jabinyanah,35.035,10.9081,57.0,52,46,18.28,TN,1674009096
170,chuy,-33.6971,-53.4616,68.34,81,0,7.9,UY,1674009097
171,bontang,0.1333,117.5,81.82,76,100,4.16,ID,1674009097
172,teguldet,57.3064,88.1667,-40.4,100,71,2.62,RU,1674009098
173,san policarpo,12.1791,125.5072,80.49,84,100,6.53,PH,1674009098
174,shelburne,44.0787,-80.2041,37.85,98,100,12.93,CA,1674009099
175,bambous virieux,-20.3428,57.7575,79.21,88,40,14.97,MU,1674008826
176,malumfashi,11.7853,7.6218,58.64,28,0,9.48,NG,1674009099
177,kirakira,-10.4544,161.9205,81.68,83,100,10.38,SB,1674008846
178,guasdualito,7.2424,-70.7324,76.96,88,0,2.3,VE,1674009100
179,hofn,64.2539,-15.2082,24.62,60,0,22.77,IS,1674009100
180,bowen,-20.0167,148.2333,78.69,75,100,20.58,AU,1674009101
181,college,64.8569,-147.8028,-4.94,81,20,5.75,US,1674008833
182,armizonskoye,55.9461,67.6736,1.96,82,66,7.74,RU,1674009012
183,dubbo,-32.25,148.6167,91.53,29,4,9.22,AU,1674009101
184,porto santo,33.072,-16.3415,59.38,67,40,19.57,PT,1674009102
185,chillicothe,39.3331,-82.9824,50.25,82,0,10.36,US,1674009093
186,mount gambier,-37.8333,140.7667,65.08,46,85,13.8,AU,1674009103
187,hasaki,35.7333,140.8333,50.29,72,96,11.23,JP,1674008993
188,narsaq,60.9167,-46.05,10.62,71,100,6.58,GL,1674009104
189,codrington,-38.2667,141.9667,60.96,58,100,17.47,AU,1674008853
190,salamiyah,35.0113,37.0532,47.84,89,18,4.03,SY,1674009105
191,tiksi,71.6872,128.8694,-20.74,100,100,5.73,RU,1674008809
192,ugoofaaru,5.6667,73.0,80.69,77,21,14.07,MV,1674009105
193,sorong,-0.8833,131.25,83.21,74,97,11.7,ID,1674009106
194,vostok,46.4856,135.8833,-1.97,80,76,7.87,RU,1674009106
195,reshetylivka,49.565,34.0782,42.04,87,100,17.18,UA,1674009107
196,fairbanks,64.8378,-147.7164,-4.92,81,20,5.75,US,1674009107
197,ndioum,16.5129,-14.6471,76.15,14,96,9.19,SN,1674009108
198,ryotsu,38.0833,138.4333,41.2,83,100,13.15,JP,1674008902
199,kijang,35.2442,129.2139,38.93,41,20,3.44,KR,1674009108
200,eugene,44.0521,-123.0867,47.03,82,100,8.05,US,1674008722
201,saldanha,-33.0117,17.9442,60.85,94,97,10.4,ZA,1674009109
202,vyshkov,52.4764,31.6873,39.67,98,100,12.84,RU,1674009109
203,podyuga,61.095,40.8647,26.87,93,100,9.64,RU,1674009110
204,pacasmayo,-7.4006,-79.5714,69.35,75,72,7.52,PE,1674009110
205,paoua,7.2427,16.4406,66.88,33,31,5.3,CF,1674009111
206,abha,18.2164,42.5053,50.25,87,0,5.75,SA,1674009111
207,puerto madryn,-42.7692,-65.0385,71.13,70,100,9.55,AR,1674008898
208,sinnamary,5.3833,-52.95,75.11,83,94,6.33,GF,1674008904
209,oktyabrskoye,43.0645,44.7417,24.94,100,100,0.0,RU,1674009112
210,san quintin,30.4833,-115.95,55.33,66,8,13.15,MX,1674009113
211,castro,-24.7911,-50.0119,64.6,99,100,3.02,BR,1674009113
212,kavaratti,10.5669,72.642,79.77,75,35,9.8,IN,1674008822
213,zhigansk,66.7697,123.3711,-52.89,96,86,4.65,RU,1674009114
214,la tuque,47.4334,-72.7824,10.65,92,100,1.14,CA,1674009114
215,saskylakh,71.9167,114.0833,-26.46,100,99,7.16,RU,1674009115
216,shache,38.4167,77.2406,-2.24,99,73,4.18,CN,1674009115
217,klaksvik,62.2266,-6.589,34.72,61,100,30.6,FO,1674008824
218,pouembout,-21.1333,164.9,73.47,90,100,6.87,NC,1674009116
219,kandrian,-6.2167,149.55,86.63,63,100,17.47,PG,1674009116
220,tasiilaq,65.6145,-37.6368,15.96,72,68,9.48,GL,1674009117
221,jacqueville,5.2052,-4.4146,79.83,84,69,4.5,CI,1674009117
222,shaki,41.0833,47.1667,33.33,66,90,3.09,AZ,1674009117
223,pangnirtung,66.1451,-65.7125,-12.87,71,100,3.58,CA,1674009118
224,nago,26.5881,127.9761,63.45,69,95,13.2,JP,1674009118
225,sao jose da coroa grande,-8.8978,-35.1478,77.36,83,100,8.72,BR,1674009119
226,alofi,-19.0595,-169.9187,85.89,79,75,6.91,NU,1674009119
227,kayes,14.0,-11.0,73.72,14,5,8.97,ML,1674009120
228,lagoa,39.05,-27.9833,56.48,69,0,12.19,PT,1674009120
229,cuamba,-14.8031,36.5372,68.14,97,100,2.08,MZ,1674009121
230,arlit,18.7369,7.3853,56.5,23,1,5.1,NE,1674009121
231,manzhouli,49.6,117.4333,-1.84,95,99,2.19,CN,1674009122
232,maniago,46.1706,12.7078,39.15,95,100,1.3,IT,1674009123
233,lev tolstoy,53.2134,39.446,24.8,84,98,17.25,RU,1674009124
234,moengo,5.6167,-54.4,69.57,94,80,1.74,SR,1674009125
235,korla,41.7597,86.1469,6.35,86,6,0.58,CN,1674009126
236,airai,-8.9266,125.4092,72.93,66,100,3.18,TL,1674009126
237,beipiao,41.7919,120.7792,21.2,34,0,12.53,CN,1674009127
238,luderitz,-26.6481,15.1594,65.35,87,87,3.78,NA,1674009127
239,chinhoyi,-17.3667,30.2,62.94,97,100,4.76,ZW,1674009128
240,saint-francois,46.4154,3.9054,33.24,93,100,3.44,FR,1674009129
241,ahipara,-35.1667,173.1667,70.3,67,12,11.32,NZ,1674009130
242,pringsewu,-5.3582,104.9744,82.13,75,94,1.21,ID,1674009130
243,barcelos,41.5388,-8.6151,48.34,78,99,18.72,PT,1674008939
244,conakry,9.538,-13.6773,77.61,75,97,6.38,GN,1674008823
245,mweka,-4.85,21.5667,64.24,98,100,0.45,CD,1674009131
246,estelle,29.8458,-90.1067,70.0,91,40,6.91,US,1674009132
247,lumsden,50.6501,-104.8678,17.01,93,100,9.08,CA,1674009010
248,lazne bohdanec,50.0756,15.6798,35.49,99,100,5.01,CZ,1674009133
249,cartagena del chaira,1.3349,-74.8429,71.11,97,100,1.34,CO,1674009134
250,bosaso,11.2842,49.1816,73.0,76,63,4.14,SO,1674009134
251,suntar,62.1444,117.6319,-58.86,98,95,1.7,RU,1674009135
252,cabo rojo,18.0866,-67.1457,73.96,64,3,11.59,PR,1674009135
253,umm kaddadah,13.6017,26.6876,57.63,30,100,11.52,SD,1674009136
254,longyearbyen,78.2186,15.6401,12.04,67,0,13.8,SJ,1674009136
255,anadyr,64.75,177.4833,-17.9,69,0,13.42,RU,1674009137
256,giyon,8.5333,37.9833,52.03,33,52,8.84,ET,1674009137
257,ilulissat,69.2167,-51.1,-26.1,83,90,5.66,GL,1674009138
258,luena,-11.7833,19.9167,60.35,97,100,3.65,AO,1674009139
259,banda aceh,5.5577,95.3222,77.49,75,100,11.97,ID,1674008924
260,bumba,2.1833,22.4667,69.87,76,85,3.24,CD,1674009139
261,nytva,57.9404,55.334,15.69,91,100,7.05,RU,1674009140
262,praia,14.9215,-23.5087,73.94,78,0,24.16,CV,1674009140
263,ucluelet,48.9329,-125.5528,48.09,94,100,1.99,CA,1674009141
264,black diamond,47.3087,-122.0032,45.46,86,100,1.99,US,1674009017
265,mogadishu,2.0371,45.3438,74.07,84,91,14.76,SO,1674009142
266,sosnogorsk,63.6023,53.8817,14.41,94,96,7.05,RU,1674009142
267,labuhan,-6.8844,112.2051,81.59,78,100,4.94,ID,1674009143
268,port hardy,50.6996,-127.4199,42.98,100,100,19.57,CA,1674009012
269,gizo,-8.103,156.8419,83.77,76,94,15.95,SB,1674009144
270,fengrun,39.8333,118.1167,29.64,32,0,9.73,CN,1674009144
271,buala,-8.145,159.5921,82.89,79,99,11.45,SB,1674009145
272,almaznyy,48.0448,40.045,28.56,93,98,14.79,RU,1674009145
273,port maria,18.3685,-76.8895,78.76,94,4,6.58,JM,1674009146
274,kamyshin,50.0983,45.416,17.58,97,93,5.19,RU,1674009146
275,carballo,43.213,-8.691,49.87,78,100,14.94,ES,1674009147
276,agadir,30.4202,-9.5982,50.45,70,0,7.74,MA,1674009063
277,makakilo city,21.3469,-158.0858,81.19,64,0,9.22,US,1674009148
278,scarborough,54.2797,-0.4044,33.66,85,87,7.0,GB,1674009148
279,malayal,7.208,121.942,87.6,73,73,2.66,PH,1674009149
280,pativilca,-10.7,-77.7833,69.8,77,99,5.3,PE,1674009149
281,ostrovnoy,68.0531,39.5131,22.1,90,8,23.13,RU,1674009150
282,kindu,-2.95,25.95,67.75,99,98,2.46,CD,1674009150
283,kasama,-10.2129,31.1808,60.12,98,100,3.78,ZM,1674009151
284,kyzyl-suu,42.3414,78.0056,12.72,58,4,8.77,KG,1674009151
285,grootfontein,-19.5667,18.1167,63.97,100,100,1.14,NA,1674009152
286,solnechnyy,50.7214,136.6319,-7.91,83,23,3.18,RU,1674009152
287,sao gabriel,-30.3364,-54.32,73.06,72,0,17.02,BR,1674009153
288,sabang,5.8933,95.3214,80.58,66,100,17.25,ID,1674009153
289,orlik,52.5178,99.825,-0.13,85,100,12.91,RU,1674009153
290,beringovskiy,63.05,179.3167,-17.48,88,83,13.78,RU,1674009154
291,charters towers,-20.1,146.2667,79.93,63,99,14.29,AU,1674009154
292,grindavik,63.8424,-22.4338,21.67,68,40,10.36,IS,1674009155
293,fort saint james,54.4333,-124.25,32.0,91,100,6.53,CA,1674009155
294,dubna,56.7333,37.1667,29.64,93,100,14.25,RU,1674009156
295,wanaka,-44.7,169.15,78.12,47,26,5.99,NZ,1674009156
296,palm valley,30.1775,-81.3876,65.05,66,2,8.01,US,1674009127
297,yeppoon,-23.1333,150.7333,82.18,71,56,19.06,AU,1674009157
298,acajutla,13.5928,-89.8275,76.06,83,65,3.8,SV,1674009157
299,iqaluit,63.7506,-68.5145,-9.31,69,100,0.0,CA,1674008910
300,aklavik,68.2191,-135.0107,-22.36,100,100,0.51,CA,1674008910
301,tabuk,17.4189,121.4443,70.66,90,100,6.76,PH,1674009158
302,port blair,11.6667,92.75,73.44,83,75,0.0,IN,1674008879
303,ponta do sol,32.6667,-17.1,62.01,77,90,8.3,PT,1674009158
304,dunmore town,25.5,-76.65,71.98,58,10,6.73,BS,1674009078
305,tevriz,57.509,72.4042,9.14,84,100,6.69,RU,1674009159
306,kamaishi,39.2667,141.8833,42.91,59,100,9.66,JP,1674009160
307,romitan,39.9343,64.3814,8.55,85,12,4.61,UZ,1674009160
308,tawau,4.2498,117.8871,86.13,70,100,1.99,MY,1674009160
309,hervey bay,-25.2986,152.8535,77.43,64,29,18.54,AU,1674009161
310,wooster,40.8051,-81.9351,44.85,88,100,14.97,US,1674009009
311,sakakah,29.9697,40.2064,42.37,62,0,3.36,SA,1674009162
312,norman wells,65.282,-126.8329,-11.16,77,20,3.44,CA,1674009162
313,tabory,58.5198,64.5495,10.63,84,87,8.32,RU,1674009162
314,saint-philippe,-21.3585,55.7679,78.39,85,100,14.56,RE,1674009163
315,nanortalik,60.1432,-45.2371,26.11,79,100,7.99,GL,1674009163
316,noumea,-22.2763,166.4572,85.98,99,100,14.88,NC,1674008866
317,luganville,-15.5333,167.1667,81.32,80,94,4.34,VU,1674009164
318,scottsbluff,41.8666,-103.6672,31.55,95,100,5.75,US,1674009164
319,kudahuvadhoo,2.6708,72.8944,80.73,76,51,8.19,MV,1674009165
320,chokurdakh,70.6333,147.9167,-36.27,100,40,4.23,RU,1674009165
321,honiara,-9.4333,159.95,81.73,84,96,8.1,SB,1674009166
322,souillac,-20.5167,57.5167,77.38,88,40,14.97,MU,1674009166
323,cartagena,10.3997,-75.5144,78.42,83,20,6.91,CO,1674009167
324,campobello di mazara,37.6358,12.7443,55.47,92,65,14.9,IT,1674009167
325,santarem,-2.4431,-54.7083,73.53,100,75,3.44,BR,1674009168
326,ambulu,-8.345,113.6058,83.23,74,100,5.57,ID,1674009168
327,opuwo,-18.0607,13.84,67.89,80,100,0.63,NA,1674009168
328,vardo,70.3705,31.1107,24.78,86,9,24.16,NO,1674009169
329,male,4.1748,73.5089,82.35,83,40,10.36,MV,1674009169
330,santa rosalia,27.3167,-112.2833,56.66,56,0,10.09,MX,1674009170
331,ganganagar,29.9167,73.8833,45.5,36,12,3.51,IN,1674009170
332,viedma,-40.8135,-62.9967,70.0,78,100,12.91,AR,1674009034
333,te anau,-45.4167,167.7167,77.5,38,9,3.76,NZ,1674009171
334,sao gabriel da cachoeira,-0.1303,-67.0892,70.56,99,100,1.28,BR,1674009171
335,murgab,37.4966,61.9714,15.67,92,75,0.0,TM,1674009172
336,verkhnyaya inta,65.9811,60.3094,15.8,86,100,17.49,RU,1674009172
337,khani,41.9563,42.9566,35.17,66,20,6.13,GE,1674009173
338,kulhudhuffushi,6.6221,73.07,80.55,75,10,14.12,MV,1674009173
339,necochea,-38.5473,-58.7368,70.79,77,100,15.03,AR,1674009174
340,dingle,10.9995,122.6711,81.27,82,100,9.51,PH,1674009174
341,tarko-sale,64.9225,77.785,-4.11,96,100,16.84,RU,1674008907
342,tharad,24.3961,71.6267,54.84,28,1,4.09,IN,1674009062
343,tautira,-17.7333,-149.15,79.99,78,18,10.58,PF,1674009175
344,praia da vitoria,38.7333,-27.0667,55.65,76,75,11.43,PT,1674009175
345,corner brook,48.9667,-57.9484,37.56,99,100,6.08,CA,1674009176
346,kushima,31.4583,131.2333,52.05,53,9,10.89,JP,1674009176
347,ibimirim,-8.5406,-37.6903,71.44,75,68,4.79,BR,1674009177
348,dubrovka,53.6907,33.5071,34.32,98,100,13.91,RU,1674009177
349,padilla,3.2204,-76.3139,71.17,95,100,1.74,CO,1674009178
350,barentu,15.1139,37.5928,62.78,80,5,5.23,ER,1674009178
351,luanda,-8.8368,13.2343,76.93,86,100,6.96,AO,1674009178
352,kautokeino,69.0125,23.0412,8.71,98,100,6.2,NO,1674009179
353,nyurba,63.2842,118.3319,-58.81,99,100,1.12,RU,1674009180
354,kjollefjord,70.9457,27.3465,32.05,74,20,16.11,NO,1674009180
355,butajira,8.1167,38.3667,52.59,29,28,5.55,ET,1674009180
356,bulancak,40.9372,38.2291,62.42,34,0,10.36,TR,1674009181
357,abalak,58.1286,68.5944,7.43,86,81,7.29,RU,1674009181
358,verkhnevilyuysk,63.4453,120.3167,-59.03,99,93,1.45,RU,1674009182
359,tiarei,-17.5333,-149.3333,84.22,78,7,10.63,PF,1674009182
360,ilkal,15.9667,76.1333,67.98,57,1,10.33,IN,1674009183
361,presidente olegario,-18.4178,-46.4181,63.79,86,12,1.83,BR,1674009183
362,tuensang,26.2833,94.8333,59.2,58,0,1.7,IN,1674009184
363,logrono,42.4667,-2.45,38.7,60,20,18.41,ES,1674008996
364,santo augusto,-27.8508,-53.7772,74.89,64,15,11.41,BR,1674009185
365,grand gaube,-20.0064,57.6608,79.38,74,100,11.99,MU,1674009185
366,comodoro rivadavia,-45.8667,-67.5,62.46,88,0,3.44,AR,1674009186
367,burla,21.5,83.8667,65.86,59,0,5.08,IN,1674009186
368,alta floresta,-9.8756,-56.0861,70.41,95,100,2.28,BR,1674009187
369,yulara,-25.2406,130.9889,95.16,29,8,17.4,AU,1674009187
370,salalah,17.0151,54.0924,71.69,73,75,2.3,OM,1674009188
371,hyeres,43.1167,6.1167,44.42,71,0,2.3,FR,1674009188
372,ust-maya,60.4167,134.5333,-46.59,93,100,0.43,RU,1674009189
373,muros,42.7762,-9.0603,45.09,85,86,23.13,ES,1674009189
374,altay,47.8667,88.1167,-6.32,80,47,4.9,CN,1674008962
375,hagere selam,6.4833,38.5167,43.54,61,38,3.65,ET,1674009190
376,lata,40.1629,-8.3327,48.07,80,100,14.23,PT,1674009190
377,samarkand,39.6542,66.9597,17.02,57,2,6.91,UZ,1674009191
378,naftalan,40.5067,46.825,27.82,76,100,1.25,AZ,1674009191
379,stromness,58.965,-3.296,39.16,61,64,26.31,GB,1674009192
380,batagay-alyta,67.8006,130.4114,-31.05,98,100,3.13,RU,1674009192
381,rocha,-34.4833,-54.3333,64.2,93,0,5.5,UY,1674009193
382,kropotkin,45.4375,40.5756,33.42,73,96,8.57,RU,1674009193
383,sept-iles,50.2001,-66.3821,34.32,92,100,6.91,CA,1674008961
384,yerbogachen,61.2767,108.0108,-51.81,99,65,3.74,RU,1674009194
385,luancheng,37.8792,114.6517,30.36,30,0,8.55,CN,1674009195
386,ancud,-41.8697,-73.8203,53.44,91,97,2.46,CL,1674009195
387,constitucion,-35.3333,-72.4167,54.1,89,1,7.09,CL,1674009196
388,mazagao,-0.115,-51.2894,77.05,96,100,3.74,BR,1674009196
389,sopelana,43.3789,-2.9831,43.81,84,100,7.0,ES,1674009196
390,sorata,-15.7667,-68.6333,45.34,93,99,6.24,BO,1674009197
391,clyde river,70.4692,-68.5914,-19.97,76,95,13.8,CA,1674009197
392,hovd,48.0056,91.6419,8.92,49,35,3.69,MN,1674009162
393,nueva loja,0.0847,-76.8828,69.8,98,98,2.06,EC,1674009198
394,dossor,47.5272,52.9811,23.02,63,4,12.73,KZ,1674009199
395,gunjur,13.2019,-16.7339,69.87,30,0,5.75,GM,1674009199
396,bahir dar,11.5936,37.3908,59.22,66,15,4.03,ET,1674009200
397,harare,-17.8294,31.0539,61.41,96,100,8.21,ZW,1674009200
398,lompoc,34.6391,-120.4579,51.01,83,0,12.66,US,1674009201
399,rosario,-32.9468,-60.6393,85.95,38,0,13.8,AR,1674009201
400,mawlaik,23.6333,94.4167,66.42,39,1,1.23,MM,1674009202
401,papara,-3.9839,-38.7273,79.2,96,10,2.46,BR,1674009202
402,quelimane,-17.8786,36.8883,73.35,94,75,0.0,MZ,1674009203
403,semirom,31.4167,51.5667,16.74,99,74,3.24,IR,1674009203
404,paamiut,61.994,-49.6678,19.24,69,100,8.59,GL,1674009204
405,nhulunbuy,-12.2333,136.7667,88.41,70,75,8.05,AU,1674009204
406,sawtell,-30.3833,153.1,80.19,57,40,13.8,AU,1674009205
407,maple creek,49.9168,-109.4848,30.61,93,100,0.0,CA,1674009205
408,evensk,61.95,159.2333,-0.53,73,100,12.57,RU,1674009206
409,asyut,27.181,31.1837,48.38,62,0,3.58,EG,1674009206
410,itaituba,-4.2761,-55.9836,71.53,100,100,2.1,BR,1674009206
411,vao,-22.6667,167.4833,75.78,69,100,17.07,NC,1674009207
412,mildura,-34.2,142.15,77.07,75,100,12.41,AU,1674009207
413,moerai,-22.4333,-151.3333,79.14,80,6,9.51,PF,1674009208
414,sioux lookout,50.1001,-91.917,12.27,85,100,5.75,CA,1674009014
415,saint-joseph,-21.3667,55.6167,77.47,80,98,14.7,RE,1674009208
416,shitanjing,39.2342,106.3439,17.28,43,0,26.15,CN,1674009209
417,hailey,43.5196,-114.3153,19.26,76,0,5.99,US,1674008663
418,bengkulu,-3.8004,102.2655,81.54,71,88,2.84,ID,1674009210
419,beyneu,45.3167,55.2,27.59,81,83,10.63,KZ,1674009210
420,havoysund,70.9963,24.6622,32.23,77,43,8.66,NO,1674009211
421,falkenberg,56.9055,12.4912,35.74,100,84,20.56,SE,1674009211
422,hokitika,-42.7167,170.9667,68.99,68,14,7.81,NZ,1674009212
423,butler,39.4501,-84.5666,44.82,84,75,14.97,US,1674009212
424,sumbe,-11.2061,13.8437,76.42,84,99,7.65,AO,1674009212
425,harper,4.375,-7.7169,78.1,83,57,5.17,LR,1674009213
426,esso,55.9333,158.7,4.8,93,100,4.79,RU,1674009213
427,pedra branca,-5.4542,-39.7172,69.78,80,18,4.14,BR,1674009214
428,amalner,21.05,75.0667,65.48,43,4,4.47,IN,1674009214
429,trutnov,50.561,15.9127,32.58,79,100,6.55,CZ,1674009215
430,kununurra,-15.7667,128.7333,89.58,70,40,8.05,AU,1674009215
431,wamba,8.9333,8.6,70.21,23,2,4.05,NG,1674008921
432,lanaken,50.8943,5.6501,29.53,85,100,7.0,BE,1674009216
433,hualmay,-11.0964,-77.6139,69.8,80,100,7.05,PE,1674009216
434,talara,-4.5772,-81.2719,74.16,68,75,13.8,PE,1674009217
435,andenes,69.3143,16.1194,33.78,69,100,9.22,NO,1674009217
436,north aurora,41.8061,-88.3273,38.28,81,100,16.11,US,1674009203
437,mahon,39.8885,4.2658,52.36,54,20,12.66,ES,1674009218
438,lichinga,-13.3128,35.2406,62.69,100,75,9.22,MZ,1674008959
439,adrar,20.5022,-10.0711,64.06,17,100,7.83,MR,1674009219
440,la ronge,55.1001,-105.2842,17.85,86,100,9.22,CA,1674009219
441,villa bruzual,9.3328,-69.1208,75.92,63,10,5.01,VE,1674009219
442,ust-kuyga,70.0167,135.6,-48.46,100,100,3.15,RU,1674009220
443,iquique,-20.2208,-70.1431,69.84,77,50,1.79,CL,1674009001
444,kilindoni,-7.9139,39.6668,80.24,76,99,6.91,TZ,1674009220
445,emborion,40.4833,21.55,48.56,82,82,13.24,GR,1674009221
446,laguna,38.421,-121.4238,50.09,78,0,0.0,US,1674009154
447,biltine,14.5333,20.9167,67.42,23,99,8.41,TD,1674009222
448,yangambi,0.8102,24.4336,67.32,96,60,2.51,CD,1674009222
449,gladstone,-23.85,151.25,85.78,58,75,17.27,AU,1674009222
450,boulder city,35.9786,-114.8325,48.43,53,20,8.05,US,1674009193
451,lahaina,20.8783,-156.6825,80.6,82,27,4.12,US,1674008972
452,poum,-20.2333,164.0167,75.88,89,100,18.63,NC,1674009224
453,porterville,36.0652,-119.0168,47.62,87,75,4.61,US,1674009224
454,monterey,36.2505,-121.2516,45.18,1,3,6.82,US,1674008970
455,plettenberg bay,-34.0527,23.3716,72.03,84,99,3.02,ZA,1674009225
456,paraiso,9.8383,-83.8656,63.95,95,90,3.06,CR,1674009225
457,oranjemund,-28.55,16.4333,66.76,86,100,3.15,NA,1674009225
458,esna,25.2934,32.554,46.42,49,6,6.46,EG,1674009226
459,sohag,26.557,31.6948,44.89,60,0,4.59,EG,1674009226
460,milazzo,38.2212,15.2383,62.53,60,8,7.0,IT,1674009227
461,vyartsilya,62.1764,30.693,27.1,95,100,10.38,RU,1674009227
462,namatanai,-3.6667,152.4333,83.91,66,100,7.4,PG,1674009228
463,lasa,46.6166,10.7002,30.02,92,74,1.3,IT,1674009228
464,lavrentiya,65.5833,-171.0,-21.87,92,12,9.82,RU,1674009228
465,paramonga,-10.6667,-77.8333,70.05,79,99,5.77,PE,1674009229
466,ulety,51.3572,112.4849,4.89,80,97,9.91,RU,1674009229
467,centenario do sul,-22.8211,-51.5953,72.36,83,97,5.5,BR,1674009230
468,ankazobe,-18.3167,47.1167,59.23,87,100,8.66,MG,1674009230
469,son la,21.3167,103.9,51.75,72,100,4.81,VN,1674009230
470,edmundston,47.3737,-68.3251,28.74,93,100,6.91,CA,1674009231
471,mayo,38.8876,-76.5119,48.51,88,40,3.44,US,1674009187
472,khalabat,34.06,72.8894,41.94,32,100,7.25,PK,1674009232
473,fare,-16.7,-151.0167,81.09,73,1,11.86,PF,1674009232
474,ahuimanu,21.4447,-157.8378,82.36,65,20,9.22,US,1674009232
475,caala,-12.8525,15.5606,59.2,99,100,2.35,AO,1674009233
476,ondjiva,-17.0667,15.7333,67.57,90,100,0.49,AO,1674009233
477,ixtapa,20.7,-105.2,70.83,73,40,0.0,MX,1674009234
478,la asuncion,11.0333,-63.8628,75.07,85,43,10.16,VE,1674009234
479,matagami,49.7502,-77.6328,23.11,74,100,3.44,CA,1674009234
480,kongsberg,59.6652,9.6465,33.4,100,100,1.99,NO,1674009235
481,victoria,22.2855,114.1577,59.25,65,100,11.01,HK,1674008943
482,xai-xai,-25.0519,33.6442,73.8,96,75,4.74,MZ,1674009235
483,faanui,-16.4833,-151.75,81.05,72,37,11.39,PF,1674009111
484,xining,36.6167,101.7667,10.29,53,80,1.9,CN,1674009236
485,ambilobe,-13.2,49.05,72.07,93,66,2.26,MG,1674009237
486,coreau,-3.5333,-40.6567,72.95,86,96,1.03,BR,1674009184
487,kachiry,53.0675,76.1036,-0.18,88,20,8.08,KZ,1674009237
488,imbituba,-28.24,-48.6703,78.85,95,100,7.07,BR,1674009238
489,guarapari,-20.6667,-40.4975,74.89,92,6,6.08,BR,1674009238
490,ibra,22.6906,58.5334,60.42,78,6,2.08,OM,1674009239
491,bartica,6.4,-58.6167,77.32,91,68,2.24,GY,1674009239
492,kharp,66.8014,65.8081,9.81,93,100,6.11,RU,1674009239
493,maldonado,-34.6667,-54.9167,70.99,91,0,8.72,UY,1674009240
494,bandarbeyla,9.4942,50.8122,74.08,76,40,13.71,SO,1674009240
495,westport,41.1415,-73.3579,45.73,74,100,0.0,US,1674008987
496,arkhangelsk,64.5401,40.5433,28.51,86,100,4.47,RU,1674009241
497,yarmouth,41.7057,-70.2286,43.02,79,100,6.91,US,1674009241
498,los llanos de aridane,28.6585,-17.9182,58.75,76,100,8.99,ES,1674009242
499,arman,59.7,150.1667,-14.39,80,98,12.8,RU,1674009242
500,ponta delgada,37.7333,-25.6667,54.32,71,40,12.66,PT,1674009243
501,batticaloa,7.7102,81.6924,78.53,73,88,12.15,LK,1674009244
502,novobelokatay,55.7062,58.9549,0.73,85,58,3.67,RU,1674009245
503,sorland,67.667,12.6934,37.26,65,100,20.83,NO,1674009245
504,tevaitoa,-16.7833,-151.5,81.0,73,17,12.17,PF,1674009246
505,danshui,22.7984,114.4672,54.73,49,99,8.7,CN,1674009246
506,saysain,14.5611,120.3925,84.29,77,100,17.18,PH,1674009247
507,dera ghazi khan,30.0561,70.6348,49.73,20,71,2.28,PK,1674009247
508,lucea,18.451,-78.1736,76.86,74,0,10.18,JM,1674009248
509,merauke,-8.4667,140.3333,85.55,69,100,13.53,ID,1674009248
510,chumikan,54.7183,135.315,-24.95,81,58,12.5,RU,1674009249
511,hattiesburg,31.3271,-89.2903,64.72,97,0,0.0,US,1674009250
512,manta,-0.95,-80.7333,78.58,73,75,5.75,EC,1674009250
513,senno,59.5336,33.9167,32.27,91,100,12.71,RU,1674009250
514,waipawa,-41.4122,175.5153,66.69,61,15,11.18,NZ,1674009251
515,chapais,49.7834,-74.8492,6.58,96,100,2.68,CA,1674009251
516,khanpur,28.6453,70.6567,51.96,15,15,6.71,PK,1674009252
517,magole,-6.3667,37.3667,68.65,93,100,2.13,TZ,1674009252
518,salinas,36.6777,-121.6555,52.07,79,0,7.0,US,1674009253
519,cayenne,4.9333,-52.3333,73.44,100,100,0.0,GF,1674009253
520,yumen,40.2833,97.2,12.7,64,1,27.38,CN,1674009098
521,santa rosa,14.3122,121.1114,84.18,77,100,13.78,PH,1674008967
522,oga,46.4631,10.347,17.02,95,82,1.52,IT,1674009254
523,penzance,50.1186,-5.5371,38.08,56,79,23.11,GB,1674009255
524,koppies,-27.2418,27.5742,63.12,50,36,6.85,ZA,1674009255
525,volokonovka,50.4827,37.8563,32.94,91,100,17.29,RU,1674009256
526,shizunai,42.3339,142.3669,30.25,58,100,13.53,JP,1674009256
527,karratha,-20.7377,116.8463,87.44,57,47,11.52,AU,1674009257
528,hambantota,6.1241,81.1185,75.54,94,75,4.61,LK,1674009257
529,bukachacha,52.9833,116.9167,-6.65,89,100,0.98,RU,1674009258
530,coronado,32.6859,-117.1831,54.07,76,40,8.05,US,1674009007
531,carutapera,-1.195,-46.02,74.89,90,99,5.84,BR,1674009258
532,antalaha,-14.9003,50.2788,73.53,90,100,9.26,MG,1674009259
533,linjiang,41.8069,126.9078,15.82,71,47,2.55,CN,1674009259
534,jaroslaw,50.0162,22.6778,42.8,82,100,13.29,PL,1674009260
535,calvinia,-31.4707,19.776,74.8,43,75,2.26,ZA,1674009260
536,belmonte,-15.8631,-38.8828,75.13,88,3,4.52,BR,1674009261
537,flinders,-34.5833,150.8552,90.25,63,44,5.01,AU,1674009261
538,meulaboh,4.1363,96.1285,75.27,69,100,4.9,ID,1674008966
539,cheney,47.4874,-117.5758,36.25,93,100,0.0,US,1674009059
540,todos santos,23.45,-110.2167,68.05,84,68,9.13,MX,1674009262
541,zima,53.9202,102.0442,-6.7,87,100,16.22,RU,1674009089
542,ulaanbaatar,47.9077,106.8832,-20.07,69,40,2.24,MN,1674009263
543,erenhot,43.6475,111.9767,12.49,68,100,20.42,CN,1674009263
544,avera,33.194,-82.5271,60.31,97,96,5.46,US,1674009264
545,xichang,27.8964,102.2634,37.08,45,10,2.73,CN,1674009264
546,khilok,51.3674,110.4676,5.18,88,100,9.75,RU,1674009265
547,zhob,31.3411,69.4481,39.2,35,100,1.83,PK,1674009265
548,jutai,-5.1833,-68.9,71.62,99,100,2.53,BR,1674009265
549,travagliato,45.5191,10.0805,38.98,73,75,4.61,IT,1674009266
550,toamasina,-18.1667,49.3833,75.2,94,75,11.5,MG,1674009266
551,nador,35.174,-2.9287,59.25,72,100,13.8,MA,1674009267
552,birin,26.8865,88.0718,48.22,55,8,2.62,NP,1674009267
553,nsanje,-16.92,35.262,72.07,98,100,2.3,MW,1674009268
554,olinda,-8.0089,-34.8553,80.33,74,75,4.61,BR,1674009268
555,doha,25.2867,51.5333,58.98,82,33,14.97,QA,1674009269
556,mahibadhoo,3.7833,72.9667,80.56,78,20,10.29,MV,1674009269
557,tulun,54.5611,100.5792,-11.51,86,100,14.97,RU,1674009270
558,beauchamps,50.012,1.5176,26.31,76,93,7.07,FR,1674009270
559,east millcreek,40.7,-111.8105,33.08,92,100,17.27,US,1674009270
560,thinadhoo,0.5333,72.9333,80.8,65,75,4.68,MV,1674009271
561,babra,21.85,71.3,58.1,31,0,9.08,IN,1674009271
562,durango,24.8333,-104.8333,50.58,39,68,8.88,MX,1674009001
563,powell river,49.8496,-124.5361,45.19,100,100,18.41,CA,1674009272
564,saurimo,-9.6608,20.3916,61.77,96,100,3.15,AO,1674009272
565,champerico,14.3,-91.9167,76.91,70,2,5.5,GT,1674009273
566,chalus,36.655,51.4204,40.46,87,0,4.61,IR,1674009273
567,salinopolis,-0.6136,-47.3561,77.05,86,100,9.46,BR,1674009274
568,huescar,37.811,-2.5412,39.25,95,100,21.59,ES,1674009274
569,morada nova,-5.1067,-38.3725,75.13,85,7,4.32,BR,1674009275
570,mersing,2.4312,103.8405,82.31,78,40,11.5,MY,1674009275
571,zhaoqing,23.0512,112.4597,49.82,63,98,4.12,CN,1674009275
572,havre-saint-pierre,50.2334,-63.5986,37.76,100,100,9.22,CA,1674009276
573,sangueya,10.7,-14.3667,67.87,88,93,2.37,GN,1674009276
574,zavodouspenskoye,56.8626,65.0155,7.02,83,78,5.66,RU,1674009277
575,ha noi,21.0245,105.8412,57.2,43,100,8.84,VN,1674009028
576,jati,24.3539,68.2671,57.43,15,0,8.39,PK,1674009277
